,City,Cloudiness,Country,Date,Humidity,Lat,Lng,Max Temp,Wind Speed
0,Tasiilaq,92,GL,1536897000,86,65.61,-37.64,39.2,2.24
1,Lata,8,IN,1536898275,97,30.78,78.62,57.79,0.25
2,Palana,88,RU,1536898275,98,59.08,159.95,43.66,6.73
3,Isangel,76,VU,1536898275,100,-19.55,169.27,75.16,16.13
4,Nabire,92,ID,1536898276,94,-3.36,135.5,71.56,2.26
5,East London,0,ZA,1536894000,87,-33.02,27.91,48.2,5.82
6,Port-Gentil,80,GA,1536898276,99,-0.72,8.78,75.43,8.97
7,Albany,75,US,1536897240,81,42.65,-73.75,67.42,3.36
8,Margate,0,AU,1536895800,34,-43.03,147.26,68.0,17.22
9,Lima,24,PE,1536898277,80,-12.06,-77.04,55.18,2.48
10,Laguna,0,MX,1536898277,39,27.52,-110.01,92.26,6.06
11,Vardo,90,US,1536897300,97,39.62,-77.74,71.33,3.36
12,Busselton,24,AU,1536898278,100,-33.64,115.35,58.51,23.17
13,Chuy,64,UY,1536898202,97,-33.69,-53.46,57.88,9.64
14,Thompson,90,CA,1536894000,87,55.74,-97.86,50.0,7.52
15,Solwezi,68,ZM,1536898279,43,-12.18,26.4,64.72,7.74
16,Mmathubudukwane,0,BW,1536894000,17,-24.61,26.43,44.6,5.82
17,Ancud,24,CL,1536898279,84,-41.87,-73.83,41.14,2.82
18,Deputatskiy,0,RU,1536898280,63,69.3,139.9,42.13,7.96
19,Carnarvon,8,ZA,1536898135,70,-30.97,22.13,28.0,4.05
20,Maningrida,8,AU,1536898280,59,-12.05,134.23,85.69,14.34
21,Ribeira Grande,92,PT,1536898281,100,38.52,-28.7,73.81,11.43
22,Ushuaia,20,AR,1536897600,80,-54.81,-68.31,39.2,19.46
23,Qaanaaq,0,GL,1536898281,100,77.48,-69.36,24.49,6.06
24,Sitka,0,US,1536898281,53,37.17,-99.65,81.1,17.47
25,Mount Gambier,12,AU,1536898282,54,-37.83,140.78,67.6,10.98
26,Punta Arenas,40,CL,1536894000,86,-53.16,-70.91,41.0,5.82
27,Mineral Wells,1,US,1536897300,79,32.81,-98.11,77.27,3.36
28,Butaritari,64,KI,1536898282,100,3.07,172.79,84.61,11.65
29,Vaini,12,IN,1536898283,92,15.34,74.49,70.75,0.92
30,Dikson,92,RU,1536898283,100,73.51,80.55,38.26,22.17
31,Port Alfred,0,ZA,1536898283,97,-33.59,26.89,59.14,8.75
32,Rikitea,24,PF,1536898284,99,-23.12,-134.97,74.17,11.99
33,Cape Town,75,ZA,1536894000,87,-33.93,18.42,55.4,10.29
34,Osorio,75,VE,1536894000,100,8.16,-71.94,75.2,2.15
35,Narsaq,92,GL,1536897000,86,60.91,-46.05,37.4,1.12
36,Jamestown,0,AU,1536898285,28,-33.21,138.6,75.43,21.83
37,Hokitika,0,NZ,1536898285,90,-42.72,170.96,55.18,6.96
38,Bluff,0,AU,1536898286,35,-23.58,149.07,83.26,4.72
39,Los Llanos de Aridane,32,ES,1536897600,88,28.66,-17.92,73.4,6.93
40,Bambous Virieux,75,MU,1536894000,68,-20.34,57.76,71.6,8.05
41,Kapaa,90,US,1536895020,84,22.08,-159.32,78.98,8.05
42,Hobart,0,AU,1536895800,34,-42.88,147.33,68.0,17.22
43,Mandalgovi,12,MN,1536898290,83,45.76,106.27,37.54,19.26
44,Mataura,0,NZ,1536898290,58,-46.19,168.86,62.02,14.79
45,Byron Bay,0,AU,1536895800,60,-28.65,153.62,73.4,13.87
46,Demak,8,ID,1536898291,100,-6.89,110.64,80.92,8.63
47,Castro,0,CL,1536898291,99,-42.48,-73.76,37.36,2.37
48,Okhotsk,0,RU,1536898292,79,59.36,143.24,55.0,1.7
49,Umm Lajj,8,SA,1536898292,100,25.02,37.27,79.3,5.84
50,Kaitangata,12,NZ,1536898292,59,-46.28,169.85,60.49,17.25
51,Hermanus,32,ZA,1536898293,81,-34.42,19.24,51.31,7.74
52,Talara,0,PE,1536898293,88,-4.58,-81.27,64.81,5.73
53,Bethel,40,US,1536897180,58,60.79,-161.76,64.94,4.7
54,Aklavik,40,CA,1536894000,75,68.22,-135.01,32.0,8.05
55,Souillac,0,FR,1536897600,82,45.6,-0.6,60.64,3.36
56,Mahebourg,75,MU,1536894000,68,-20.41,57.7,71.6,8.05
57,Nanortalik,92,GL,1536898295,100,60.14,-45.24,36.46,6.17
58,Barrow,0,AR,1536898295,92,-38.31,-60.23,51.04,9.64
59,Pullman,1,US,1536897180,71,46.73,-117.17,56.39,9.17
60,Touros,8,BR,1536898296,83,-5.2,-35.46,74.53,18.59
61,Abu Zabad,0,SD,1536898296,92,12.35,29.25,69.58,2.93
62,Norman Wells,75,CA,1536894000,48,65.28,-126.83,41.0,9.17
63,Araouane,24,ML,1536898072,31,18.9,-3.53,78.58,2.93
64,Yellowknife,75,CA,1536894000,74,62.45,-114.38,33.8,6.93
65,Serenje,0,ZM,1536898297,59,-13.23,30.22,58.33,8.86
66,Tabat,0,ID,1536898297,60,-2.64,115.23,87.22,3.04
67,Cherskiy,48,RU,1536898297,62,68.75,161.3,43.93,2.93
68,Nikolskoye,0,RU,1536895800,93,59.7,30.79,50.0,4.47
69,New Norfolk,0,AU,1536895800,34,-42.78,147.06,68.0,17.22
70,Torbay,90,CA,1536895440,100,47.66,-52.73,51.8,4.7
71,Pevek,92,RU,1536898298,86,69.7,170.27,48.7,7.18
72,San Patricio,92,PY,1536898299,99,-26.98,-56.83,63.82,5.06
73,Porosozero,20,RU,1536898299,93,62.72,32.71,48.25,7.52
74,Hofn,64,IS,1536898300,100,64.25,-15.21,44.74,8.52
75,Payo,0,ID,1536898300,50,-3.75,103.64,88.48,3.94
76,Zhezkazgan,0,KZ,1536895800,37,47.8,67.71,55.4,6.71
77,Tromso,75,NO,1536897000,93,69.65,18.96,48.2,9.17
78,Avarua,75,CK,1536894000,68,-21.21,-159.78,71.6,4.7
79,Banda Aceh,12,ID,1536898147,73,5.56,95.32,84.61,3.49
80,Kavieng,0,PG,1536898301,100,-2.57,150.8,84.79,4.16
81,Mayumba,92,GA,1536898302,100,-3.44,10.65,72.91,6.17
82,Gillette,1,US,1536897180,71,44.29,-105.5,53.06,3.36
83,Hambantota,56,LK,1536898302,95,6.12,81.12,81.73,9.42
84,Ulaangom,0,MN,1536898303,56,49.98,92.07,36.64,0.92
85,Mutare,0,MZ,1536898195,87,-18.97,32.67,49.6,2.37
86,San Cristobal,20,EC,1536894000,81,-0.39,-78.55,50.0,2.24
87,Iqaluit,40,CA,1536894000,100,63.75,-68.52,32.0,15.46
88,Bella Union,80,CO,1536898304,94,8.5,-73.35,66.97,1.59
89,Baijiantan,0,CN,1536898304,65,45.63,85.18,51.04,5.95
90,La Plaine,90,FR,1536895800,82,45.17,5.76,65.34,3.36
91,Longyearbyen,75,NO,1536893400,80,78.22,15.63,33.8,2.71
92,Geraldton,20,CA,1536894000,82,49.72,-86.95,62.6,10.29
93,Gualaquiza,32,EC,1536898306,80,-3.4,-78.58,64.27,2.93
94,Puerto Madryn,0,AR,1536898306,75,-42.77,-65.04,51.13,12.44
95,Kirakira,64,SB,1536898307,100,-10.46,161.92,82.09,14.23
96,Bilibino,92,RU,1536898307,83,68.06,166.44,42.67,5.28
97,Nefteyugansk,75,RU,1536895800,93,61.09,72.61,51.8,22.37
98,Tuktoyaktuk,90,CA,1536894000,86,69.44,-133.03,28.4,9.17
99,Helmsdale,75,GB,1536897000,76,58.12,-3.65,52.34,8.05
100,Srivardhan,0,IN,1536898308,88,18.03,73.02,78.67,3.49
101,Upata,8,VE,1536898308,86,8.02,-62.41,74.08,6.06
102,Uvalde,1,US,1536897300,93,29.21,-99.79,76.15,3.36
103,Kerema,92,PG,1536898309,96,-7.96,145.78,75.97,2.82
104,Hilo,20,US,1536895440,82,19.71,-155.08,70.99,8.05
105,Dingle,92,PH,1536898310,100,11.0,122.67,75.79,16.69
106,Apatity,92,RU,1536898310,100,67.57,33.4,45.28,2.37
107,Wichian Buri,92,TH,1536898310,100,15.66,101.11,75.61,4.38
108,Cayenne,0,GF,1536895800,100,4.94,-52.33,77.0,10.54
109,North Bend,90,US,1536897360,96,43.41,-124.22,54.39,1.92
110,Nome,40,US,1536897300,85,30.04,-94.42,77.86,5.82
111,Nuevo Progreso,90,US,1536897660,100,26.05,-97.95,81.25,5.82
112,Port Elizabeth,90,US,1536897300,93,39.31,-74.98,71.31,10.29
113,Tocopilla,64,CL,1536898312,100,-22.09,-70.2,53.11,2.37
114,Williston,1,US,1536897300,61,48.15,-103.62,57.88,9.17
115,Constantine,20,DZ,1536895800,93,36.36,6.61,62.6,3.71
116,Kodiak,1,US,1536897180,93,39.95,-94.76,71.96,8.05
117,Axim,92,GH,1536898313,100,4.87,-2.24,76.78,10.42
118,Atuona,0,PF,1536898314,99,-9.8,-139.03,79.84,16.91
119,Jertih,75,MY,1536894000,70,5.74,102.5,87.8,3.36
120,Mildura,0,AU,1536898314,42,-34.18,142.16,73.63,15.79
121,Broome,0,GB,1536897360,81,52.47,1.45,53.96,6.93
122,Khakhea,0,BW,1536898315,31,-24.69,23.5,46.36,3.6
123,Goderich,44,CA,1536898315,86,43.74,-81.71,69.94,11.65
124,Victoria,90,BN,1536895800,74,5.28,115.24,86.92,5.82
125,Fortuna,20,ES,1536897600,88,38.18,-1.13,71.62,3.36
126,Atasu,0,KZ,1536898316,78,48.68,71.64,49.33,2.82
127,Vyatskiye Polyany,0,RU,1536898317,87,56.22,51.07,49.96,11.54
128,Ginir,0,ET,1536898317,68,7.14,40.71,62.74,6.73
129,Arraial do Cabo,0,BR,1536898317,91,-22.97,-42.02,69.31,20.49
130,Atar,8,MR,1536898318,80,20.52,-13.05,73.18,2.59
131,Fukue,75,JP,1536896820,69,35.03,136.69,74.25,3.36
132,Faya,0,SA,1536894000,45,18.39,42.45,63.54,1.59
133,Shenjiamen,8,CN,1536898319,97,29.96,122.3,80.92,4.72
134,Micheweni,80,TZ,1536898067,100,-4.97,39.83,76.51,9.42
135,Bredasdorp,76,ZA,1536894000,76,-34.53,20.04,53.6,8.05
136,Ahipara,56,NZ,1536898319,84,-35.17,173.16,57.52,8.86
137,Kondinskoye,44,RU,1536898320,74,59.65,67.41,52.93,14.67
138,Muros,20,ES,1536897600,100,42.77,-9.06,60.8,8.05
139,Kurilsk,92,RU,1536898320,88,45.23,147.88,60.67,12.44
140,Alihe,8,CN,1536898320,64,50.57,123.73,61.84,3.71
141,Aranos,0,NA,1536898321,30,-24.14,19.11,45.46,2.26
142,Khatanga,12,RU,1536898321,100,71.98,102.47,41.23,10.76
143,Esperance,40,TT,1536894000,88,10.24,-61.45,78.8,5.82
144,Havre,75,US,1536897180,63,48.55,-109.68,55.04,4.61
145,Mehamn,75,NO,1536897000,87,71.03,27.85,48.2,2.24
146,Sorong,20,ID,1536898322,100,-0.86,131.25,80.65,10.87
147,Malanje,24,AO,1536898322,99,-9.54,16.35,62.47,3.71
148,Cidreira,88,BR,1536898323,89,-30.17,-50.22,63.73,7.74
149,Dicabisagan,92,PH,1536898323,100,17.08,122.42,79.48,16.8
150,Cotonou,20,BJ,1536894000,94,6.37,2.43,77.0,2.24
151,Kholmogory,90,RU,1536895800,100,64.23,41.65,50.0,2.24
152,Wanning,75,AT,1536895200,93,48.64,13.53,62.6,2.24
153,Antofagasta,75,CL,1536894000,71,-23.65,-70.4,55.4,4.7
154,Straumen,75,NO,1536897000,87,63.87,11.3,44.6,2.24
155,Sao Joao da Barra,36,BR,1536898325,100,-21.64,-41.05,72.28,19.37
156,Port Blair,80,IN,1536898325,100,11.67,92.75,81.91,13.33
157,Belmonte,0,PT,1536898051,78,40.36,-7.35,59.68,3.6
158,Georgetown,40,GY,1536894000,100,6.8,-58.16,73.4,4.7
159,Coquimbo,90,CL,1536897600,81,-29.95,-71.34,53.6,3.36
160,Walker,40,US,1536896160,90,43.01,-85.77,62.91,5.17
161,Birao,44,CF,1536898327,99,10.3,22.78,68.41,3.94
162,Kwinana,75,AU,1536895800,51,-32.25,115.77,61.95,21.92
163,Cam Ranh,64,VN,1536898328,96,11.92,109.15,81.01,1.7
164,Nantucket,1,US,1536896100,100,41.28,-70.1,62.78,8.97
165,San Mateo del Mar,68,MX,1536898328,96,16.21,-94.98,83.98,5.73
166,Dandong,88,CN,1536898328,80,40.12,124.37,74.98,3.6
167,Asadabad,0,IR,1536898329,80,34.78,48.12,46.54,2.15
168,Ulladulla,0,AU,1536894000,44,-35.36,150.48,75.2,13.87
169,Longonjo,0,AO,1536898389,85,-12.91,15.25,44.83,2.15
170,Zavolzhye,0,RU,1536895800,81,56.64,43.39,50.0,4.47
171,Airai,0,TL,1536898331,36,-8.93,125.41,84.43,1.36
172,Vilhena,36,BR,1536898106,78,-12.74,-60.15,74.98,2.71
173,Saskylakh,0,RU,1536898331,77,71.97,114.09,43.75,6.17
174,Biltine,92,TD,1536898391,67,14.53,20.93,74.98,8.75
175,Verkhnyaya Inta,92,RU,1536898333,99,65.99,60.32,48.07,4.72
176,Magrath,90,CA,1536897600,70,49.42,-112.86,42.8,5.82
177,Saint-Philippe,1,CA,1536897300,100,45.36,-73.48,62.83,3.71
178,Galle,1,US,1536897360,97,29.74,-97.91,75.6,10.29
179,Entebbe,48,UG,1536898334,100,0.06,32.45,68.14,9.86
180,Broken Hill,0,AU,1536898334,36,-31.97,141.45,75.43,15.46
181,Mar del Plata,12,AR,1536898063,52,-46.43,-67.52,55.99,21.27
182,Sydney,0,AU,1536895800,53,-33.85,151.22,80.15,16.11
183,Upernavik,32,GL,1536898335,100,72.79,-56.15,35.56,3.83
184,Saint George,20,GR,1536895200,77,39.45,22.34,59.0,3.36
185,Nouadhibou,8,MR,1536894000,69,20.93,-17.03,82.4,9.17
186,Zhuhai,20,CN,1536894000,68,40.71,112.04,66.2,6.71
187,Cabo San Lucas,20,MX,1536892800,74,22.89,-109.91,82.4,5.82
188,Vao,56,EE,1536898336,83,59.1,26.19,52.03,7.96
189,Hervey Bay,0,AU,1536898337,79,-25.3,152.85,72.46,5.17
190,Biloela,0,AU,1536898337,45,-24.4,150.51,81.01,4.38
191,Codrington,0,AU,1536898337,69,-28.95,153.24,75.43,3.49
192,Richards Bay,92,ZA,1536898338,98,-28.77,32.06,63.46,2.71
193,Awbari,0,LY,1536898338,46,26.59,12.77,69.13,6.62
194,Ponta do Sol,56,BR,1536898338,96,-20.63,-46.0,58.51,2.04
195,Otorohanga,0,NZ,1536898338,71,-38.18,175.2,60.67,9.19
196,Shuyskoye,56,RU,1536898339,70,59.37,41.03,52.48,11.88
197,Provideniya,90,RU,1536895800,87,64.42,-173.23,46.4,13.42
198,Nioro,64,GM,1536898339,98,13.79,-15.05,72.19,2.93
199,Vanimo,68,PG,1536898339,100,-2.67,141.3,80.29,13.44
200,Kahului,75,US,1536893760,76,20.89,-156.47,78.15,18.34
201,Meulaboh,36,ID,1536898340,100,4.14,96.13,81.28,0.69
202,Beringovskiy,92,RU,1536898340,99,63.05,179.32,50.77,18.37
203,Buchanan,75,LR,1536895800,100,5.88,-10.05,73.4,7.4
204,Clyde River,90,CA,1536896340,100,70.47,-68.59,33.8,3.36
205,Bonthe,92,SL,1536898341,100,7.53,-12.5,72.64,3.49
206,Sinnamary,92,GF,1536898341,95,5.38,-52.96,82.36,15.01
207,Hithadhoo,88,MV,1536898342,100,-0.6,73.08,82.54,15.12
208,Havelock,90,US,1536897360,93,34.88,-76.9,76.48,36.91
209,Puerto Plata,40,DO,1536894000,88,19.79,-70.69,79.61,9.19
210,Ayan,0,TR,1536898343,81,40.67,33.6,41.23,1.59
211,Satis,36,RU,1536898343,86,54.92,43.23,45.28,4.05
212,Luganville,92,VU,1536898343,100,-15.51,167.18,74.71,7.74
213,Saint-Georges,0,CA,1536898343,87,46.12,-70.67,54.82,2.26
214,Sao Filipe,76,CV,1536898344,100,14.9,-24.5,76.51,4.61
215,Saint Simons,1,US,1536896340,94,31.14,-81.39,78.55,5.28
216,Inta,92,RU,1536898344,98,66.04,60.13,48.52,4.5
217,Srednekolymsk,88,RU,1536898345,84,67.46,153.71,38.08,3.94
218,Piskivka,80,UA,1536895800,100,50.7,29.59,57.06,2.24
219,Sarangani,12,PH,1536898345,93,5.4,125.46,84.52,15.35
220,Xuanzhou,44,CN,1536898345,90,30.95,118.78,81.91,4.27
221,Arona,0,IT,1536895200,93,45.76,8.56,57.4,4.7
222,Caravelas,8,BR,1536898346,100,-17.73,-39.27,73.63,13.22
223,Belaya Gora,92,RU,1536898346,100,68.54,146.19,38.89,10.98
224,Chicama,90,PE,1536894000,88,-7.84,-79.15,62.6,8.05
225,Tolaga Bay,0,NZ,1536898347,73,-38.37,178.3,61.03,4.05
226,Kefamenanu,0,ID,1536898347,33,-9.45,124.48,85.96,1.7
227,Sorland,75,NO,1536897000,87,67.67,12.69,48.2,4.7
228,Rawson,0,AR,1536898348,40,-43.3,-65.11,46.18,6.73
229,Sabang,92,PH,1536898348,100,13.72,123.58,76.06,21.27
230,Constitucion,90,MX,1536893280,100,23.99,-104.67,64.4,4.7
231,Puerto Ayora,44,EC,1536898342,100,-0.74,-90.35,70.66,12.21
232,Talnakh,0,RU,1536898349,81,69.49,88.39,38.53,14.56
233,Mbuji-Mayi,44,CD,1536898349,98,-6.13,23.6,66.16,2.93
234,Izumo,75,JP,1536894000,83,35.37,132.75,77.0,9.17
235,Ust-Kuyga,0,RU,1536898349,69,70.0,135.55,45.82,1.59
236,Beian,75,NO,1536897000,76,63.66,9.57,50.0,6.93
237,Baruun-Urt,88,MN,1536898350,63,46.68,113.28,55.81,21.16
238,Timiryazevskoye,80,RU,1536898350,70,56.49,84.88,54.28,11.21
239,Port Macquarie,0,AU,1536894000,44,-31.43,152.91,78.8,12.75
240,Doha,12,QA,1536894000,79,25.29,51.53,87.8,6.96
241,Verkhnevilyuysk,68,RU,1536898351,78,63.45,120.31,43.39,4.72
242,Lodja,68,CD,1536898351,96,-3.52,23.6,69.4,2.59
243,Mnogovershinnyy,92,RU,1536898351,100,53.94,139.92,53.29,2.59
244,Luderitz,0,NA,1536898352,90,-26.65,15.16,49.69,12.77
245,Yendi,68,GH,1536898352,91,9.45,0.0,73.99,9.64
246,Jardim,32,BR,1536898352,88,-21.48,-56.15,65.71,3.71
247,Saint-Francois,40,FR,1536897600,93,46.42,3.91,57.2,3.38
248,Pasni,12,PK,1536898353,98,25.26,63.48,78.85,4.27
249,Ust-Nera,24,RU,1536898353,62,64.57,143.24,38.62,2.59
250,Lompoc,1,US,1536896100,67,34.64,-120.46,58.6,4.7
251,Gizo,20,IL,1536895200,73,31.8,34.94,77.38,3.36
252,Karratha,0,AU,1536898354,10,-20.74,116.85,93.16,4.72
253,Brookhaven,90,US,1536897360,93,40.78,-72.92,69.04,4.7
254,Batemans Bay,0,AU,1536898355,58,-35.71,150.18,68.5,3.94
255,Rocha,76,UY,1536898355,96,-34.48,-54.34,56.44,6.4
256,Guerrero Negro,0,MX,1536898356,85,27.97,-114.04,72.19,9.42
257,Alta Floresta,24,BR,1536898356,94,-9.87,-56.08,74.17,2.59
258,Severo-Kurilsk,32,RU,1536898357,83,50.68,156.12,56.8,6.62
259,Jiwani,64,PK,1536898357,98,25.05,61.74,77.59,3.15
260,Lavrentiya,80,RU,1536898357,97,65.58,-170.99,49.06,15.68
261,Dhidhdhoo,48,MV,1536898357,99,6.88,73.1,83.89,8.19
262,Lorengau,44,PG,1536898361,100,-2.02,147.27,82.99,8.75
263,Seidu,92,NG,1536898361,100,8.32,4.47,73.36,5.28
264,Kruisfontein,0,ZA,1536898362,92,-34.0,24.73,56.62,15.23
265,Isoka,8,ZM,1536898362,78,-10.15,32.64,59.77,6.62
266,Cururupu,0,BR,1536898362,76,-1.82,-44.87,78.58,10.2
267,Isnos,68,CO,1536898363,98,1.94,-76.24,55.72,2.04
268,Mackay,90,CA,1536897600,86,53.65,-115.58,30.2,3.36
269,Riyadh,68,SA,1536894000,9,24.63,46.72,84.2,4.7
270,Imbituba,75,BR,1536894000,93,-28.24,-48.67,64.4,2.24
271,Burns Lake,44,CA,1536898364,68,54.23,-125.76,37.45,2.37
272,Depok,20,ID,1536897600,40,-6.41,106.81,88.74,6.93
273,Berlevag,75,NO,1536897000,87,70.86,29.09,48.2,2.24
274,Basco,1,US,1536896400,88,40.33,-91.2,69.12,4.7
275,Leh,80,IN,1536898365,85,34.16,77.58,32.68,0.36
276,Mandiana,8,GN,1536898365,94,10.62,-8.7,66.34,3.71
277,Deniliquin,0,AU,1536898366,75,-35.53,144.96,67.33,11.65
278,Kaeo,12,NZ,1536898366,62,-35.1,173.78,62.11,8.19
279,Concepcion del Oro,24,MX,1536898366,74,24.63,-101.42,58.87,2.26
280,Tommot,92,RU,1536898367,89,58.97,126.27,43.93,3.27
281,Barcelos,40,PT,1536895800,100,41.53,-8.62,58.86,1.81
282,Merauke,100,ID,1536898367,69,-8.49,140.4,85.51,17.25
283,Merritt Island,1,US,1536893760,90,28.54,-80.67,79.57,6.06
284,Naze,64,NG,1536898371,97,5.43,7.07,72.01,3.71
285,Sao Felix do Xingu,12,BR,1536898371,95,-6.64,-51.99,73.0,2.71
286,Dolny Kubin,0,SK,1536895800,93,49.21,19.3,55.31,3.36
287,Lebu,20,ET,1536894000,93,8.96,38.73,51.8,6.93
288,Tamiahua,20,MX,1536898372,99,21.28,-97.45,80.92,5.28
289,Eureka,1,US,1536896100,93,40.8,-124.16,55.18,6.93
290,Prescott,1,US,1536893580,4,34.54,-112.47,69.08,6.93
291,Novikovo,36,UA,1536898373,100,45.05,34.56,64.54,8.97
292,Komsomolskiy,88,RU,1536898373,98,67.55,63.78,44.2,7.63
293,Rosa Zarate,92,EC,1536898373,96,0.33,-79.47,72.01,1.7
294,Ismailia,0,EG,1536898374,96,30.6,32.27,65.44,2.59
295,Savannah Bight,0,HN,1536898374,95,16.45,-85.85,84.61,21.27
296,Uberlandia,0,BR,1536894000,46,-18.92,-48.28,73.4,8.05
297,Pangody,92,RU,1536898375,97,65.85,74.49,46.36,13.89
298,Flagstaff,1,US,1536896100,22,35.2,-111.65,65.88,6.17
299,Northam,92,GB,1536893400,93,51.04,-4.21,53.6,8.05
300,Caraquet,1,CA,1536894000,93,47.79,-64.94,60.8,4.7
301,Husavik,44,CA,1536898376,96,50.56,-96.99,57.43,9.31
302,Ca Mau,88,VN,1536898376,94,9.18,105.15,81.28,11.77
303,La Crosse,1,US,1536897300,78,43.8,-91.24,62.46,4.7
304,Haines Junction,80,CA,1536898377,70,60.75,-137.51,43.39,2.71
305,Susaki,75,JP,1536894000,83,33.42,133.28,78.8,2.24
306,Saldanha,0,PT,1536898377,81,41.42,-6.55,54.73,2.15
307,Ozinki,48,RU,1536898378,72,51.2,49.73,59.05,3.49
308,Yuanping,32,CN,1536898378,89,38.72,112.71,62.56,3.04
309,Houma,92,CN,1536898378,85,35.63,111.36,65.44,2.15
310,Barroso,20,BR,1536897600,93,-23.67,-46.22,60.8,3.36
311,Masvingo,0,ZW,1536898379,60,-20.08,30.83,46.09,2.93
312,Anadyr,75,RU,1536895800,93,64.73,177.51,53.6,29.08
313,Rio Grande,68,BR,1536898379,92,-32.03,-52.1,61.48,6.73
314,Shingu,75,JP,1536894000,83,33.72,135.99,77.0,5.82
315,Mhlambanyatsi,0,SZ,1536898380,63,-26.45,31.02,41.41,1.48
316,Ternate,90,PH,1536894000,94,14.29,120.72,84.2,8.05
317,Hami,0,CN,1536898381,84,42.84,93.51,53.38,6.17
318,Chimore,80,BO,1536898381,91,-16.98,-65.13,74.98,1.59
319,Marzuq,0,YE,1536898381,88,14.4,46.47,58.96,3.71
320,Klaksvik,80,FO,1536897000,87,62.23,-6.59,44.6,2.24
321,Mayo,40,CA,1536894000,39,63.59,-135.9,48.2,12.75
322,Katsuura,75,JP,1536896880,78,33.93,134.5,76.42,8.05
323,Henties Bay,8,NA,1536898382,100,-22.12,14.28,52.3,3.83
324,Singaraja,40,ID,1536897600,58,-8.11,115.08,84.2,8.05
325,Rudnogorsk,92,RU,1536898383,100,57.27,103.75,39.43,6.96
326,Tshela,92,CD,1536898383,88,-4.99,12.94,69.58,4.16
327,Qidong,12,CN,1536898383,87,31.81,121.66,83.26,3.94
328,Oussouye,20,SN,1536894000,83,12.49,-16.54,77.88,4.7
329,Pacific Grove,1,US,1536896100,55,36.62,-121.92,61.84,9.17
330,Zhigansk,76,RU,1536898384,73,66.77,123.37,43.66,3.49
331,Varzea Grande,0,BR,1536894000,93,-29.42,-50.86,64.4,4.7
332,Coihaique,75,CL,1536894000,76,-45.58,-72.07,47.16,8.05
333,Dali,64,CN,1536898385,83,25.6,100.24,67.69,1.36
334,Tiznit,8,MA,1536898386,94,29.7,-9.73,66.43,2.71
335,Beidao,92,CN,1536898386,96,34.57,105.89,58.06,3.15
336,Najran,0,SA,1536894000,31,17.54,44.22,73.4,4.05
337,Pangnirtung,12,CA,1536898386,90,66.15,-65.72,31.96,18.48
338,Evensk,0,RU,1536898387,94,61.92,159.24,50.59,9.19
339,Puerto Baquerizo Moreno,36,EC,1536898387,100,-0.9,-89.6,71.11,12.55
340,Rio Gallegos,0,AR,1536894000,65,-51.62,-69.22,46.4,8.05
341,Namatanai,88,PG,1536898387,100,-3.66,152.44,82.18,2.82
342,Tiarei,75,PF,1536895800,69,-17.53,-149.33,80.6,8.05
343,Yulara,0,AU,1536894720,7,-25.24,130.99,91.4,18.34
344,Cody,1,US,1536897360,50,44.53,-109.06,57.02,6.93
345,Walvis Bay,0,NA,1536898390,100,-22.95,14.51,55.18,8.52
346,Bagdarin,92,RU,1536898390,87,54.44,113.59,36.91,3.38
347,Kieta,92,PG,1536898390,100,-6.22,155.63,76.15,3.04
348,Gladstone,0,AU,1536898390,55,-23.84,151.26,78.13,9.53
349,Poum,8,MK,1536898391,79,41.28,20.71,49.96,2.71
350,La Paz,0,MX,1536898391,58,24.15,-110.32,86.23,5.61
351,Hasaki,75,JP,1536895800,69,35.73,140.83,75.2,3.36
352,Ayagoz,0,KZ,1536898392,43,47.96,80.43,47.89,6.62
353,Matamoros,40,US,1536897660,93,25.87,-97.51,81.03,4.72
354,Kutum,32,SD,1536898392,94,14.2,24.66,63.64,3.71
355,Viedma,0,AR,1536898393,50,-40.81,-62.99,46.81,5.39
356,College,20,US,1536893880,42,64.86,-147.8,62.13,9.17
357,Danane,88,CI,1536898393,97,7.26,-8.15,70.3,4.16
358,Uglekamensk,8,RU,1536898393,59,43.22,133.23,72.64,2.71
359,Conceicao do Araguaia,0,BR,1536898394,87,-8.26,-49.26,72.91,2.71
360,Marsh Harbour,8,BS,1536898394,99,26.54,-77.06,84.25,9.19
361,Vilyuysk,64,RU,1536898394,75,63.75,121.63,43.12,4.27
362,Opuwo,0,NA,1536898395,76,-18.06,13.84,45.19,2.37
363,Artvin,0,TR,1536895800,88,41.18,41.83,77.0,6.93
364,Grindavik,40,IS,1536895800,80,63.84,-22.43,39.2,9.17
365,Yerofey Pavlovich,64,RU,1536898396,84,53.97,121.97,52.66,3.71
366,Zhanaozen,0,KZ,1536898396,29,43.35,52.85,62.47,13.0
367,Puerto del Rosario,44,ES,1536897600,83,28.5,-13.86,75.2,8.05
368,Taraz,0,KZ,1536895800,32,42.89,71.39,51.8,6.71
369,Turukhansk,0,RU,1536898397,79,65.8,87.96,39.16,17.81
370,Inhambane,0,MZ,1536898397,100,-23.87,35.38,66.79,10.76
371,Vostok,76,RU,1536898397,94,46.45,135.83,58.6,3.6
372,Le Pradet,90,FR,1536897600,82,46.44,1.83,60.8,6.93
373,Praia,0,BR,1536894000,68,-20.25,-43.81,64.4,8.05
374,Shubarkuduk,0,KZ,1536898398,36,49.15,56.49,54.64,9.19
375,Teguldet,92,RU,1536898398,97,57.31,88.17,48.61,10.54
376,Lillooet,90,CA,1536897600,76,50.69,-121.94,48.2,8.05
377,Champerico,90,MX,1536894000,94,16.38,-93.6,69.8,3.36
378,Barra do Garcas,75,BR,1536894000,65,-15.89,-52.26,80.6,2.24
379,Tulsipur,0,IN,1536898399,100,27.53,82.41,78.76,4.72
380,Grand Gaube,75,MU,1536894000,68,-20.01,57.66,71.6,8.05
381,Kyabe,24,TD,1536898130,95,9.45,18.94,69.31,2.93
382,Kashan,0,IR,1536898400,38,33.99,51.44,65.8,3.38
383,Fare,92,PF,1536898400,99,-16.7,-151.02,79.84,10.31
384,Matay,0,EG,1536898401,62,28.42,30.79,71.11,9.86
385,Las Choapas,75,MX,1536893820,74,17.91,-94.09,80.6,11.41
386,Aswan,0,EG,1536894000,30,24.09,32.9,80.6,5.82
387,Soe,76,EE,1536897000,81,57.91,26.05,51.8,10.29
388,Paranhos,64,PY,1536898402,69,-23.89,-55.43,70.75,6.51
389,Bureya,0,RU,1536898402,72,49.81,129.81,65.08,5.61
390,Jutai,0,BR,1536898402,88,-1.71,-47.89,74.53,5.17
391,Ebebiyin,76,GQ,1536898402,97,2.15,11.34,69.31,2.59
392,Royan,0,FR,1536897600,82,45.62,-1.03,62.6,3.36
393,Abu Samrah,0,SY,1536898403,92,35.3,37.18,67.24,9.42
394,Indianola,1,US,1536897180,70,40.24,-100.42,75.02,9.17
395,Athabasca,36,CA,1536898403,83,54.72,-113.29,28.72,2.93
396,Latung,0,ID,1536898404,43,-8.45,120.42,84.79,2.26
397,Ostrovnoy,92,RU,1536898404,100,68.05,39.51,45.19,4.16
398,Eldorado,40,MX,1536893220,79,24.32,-107.36,86.0,5.82
399,Faanui,20,PF,1536898405,100,-16.48,-151.75,80.2,11.43
400,Bilma,0,NE,1536898405,41,18.69,12.92,68.23,3.27
401,Amahai,48,ID,1536898406,100,-3.31,129.0,77.77,7.52
402,Palmas Bellas,40,PA,1536894000,100,9.23,-80.09,77.0,2.24
403,Takoradi,92,GH,1536898406,99,4.89,-1.75,75.61,7.4
404,Saint-Pierre,90,FR,1536897600,87,48.95,4.24,58.19,8.05
405,Mulege,0,MX,1536898278,57,26.88,-111.98,83.08,0.69
406,Yantzaza,32,EC,1536898407,80,-3.83,-78.76,64.27,2.93
407,Udachnyy,0,RU,1536898407,64,66.42,112.4,43.48,3.38
408,Qaqortoq,92,GL,1536897000,86,60.72,-46.03,37.4,1.12
409,Shahrud,12,IR,1536898408,93,36.42,54.97,46.36,2.59
410,Salalah,90,OM,1536893400,83,17.01,54.1,77.0,4.7
411,Vestmanna,80,FO,1536897000,87,62.16,-7.17,44.6,2.24
412,Tarko-Sale,92,RU,1536898409,99,64.92,77.78,46.81,16.24
413,Coracora,0,PE,1536898409,70,-15.02,-73.78,26.38,2.37
414,Djougou,20,BJ,1536894000,100,9.71,1.67,71.6,2.24
415,Eresos,0,GR,1536897000,77,39.17,25.93,69.8,12.21
416,Plakhtiyivka,92,UA,1536898410,92,46.1,29.72,63.46,7.63
417,Alekseyevka,40,RU,1536895800,87,53.25,50.49,59.0,2.24
418,Lazaro Cardenas,5,MX,1536892800,49,28.39,-105.62,68.0,4.7
419,Buala,92,SB,1536898411,100,-8.15,159.59,79.03,11.77
420,Kudahuvadhoo,32,MV,1536898411,100,2.67,72.89,79.66,9.75
421,Bani Walid,0,LY,1536898411,83,31.76,14.0,64.99,2.82
422,Labuhan,8,ID,1536898412,60,-2.54,115.51,86.14,3.6
423,Egvekinot,92,RU,1536898412,100,66.32,-179.17,46.09,2.93
424,Douentza,8,ML,1536898413,87,15.01,-2.95,69.4,2.59
425,Dunedin,0,NZ,1536898145,68,-45.87,170.5,60.67,2.59
426,Soria,0,ES,1536898413,87,41.76,-2.46,46.45,2.59
427,Okitipupa,92,NG,1536898413,98,6.5,4.78,74.71,2.48
428,Ardakan,0,IR,1536894000,28,32.31,54.02,73.4,4.7
429,Khani,0,GE,1536895800,54,41.96,42.96,78.8,27.51
430,Kormilovka,75,RU,1536894000,41,55.0,74.1,59.0,17.9
431,Portobelo,40,PA,1536894000,100,9.55,-79.65,77.0,2.24
432,Omsukchan,64,RU,1536898415,55,62.53,155.8,40.06,8.97
433,Vestmannaeyjar,56,IS,1536898415,99,63.44,-20.27,44.83,11.43
434,Ibresi,44,RU,1536898415,84,55.3,47.04,48.79,4.83
435,Saint Anthony,1,US,1536893760,7,43.97,-111.68,55.54,8.52
436,Pochutla,80,MX,1536898416,100,15.74,-96.47,81.55,0.69
437,Tete,0,MZ,1536898416,84,-16.16,33.59,62.65,3.71
438,Muravlenko,80,RU,1536898416,100,63.79,74.5,50.14,4.94
439,Monroe,90,US,1536897180,96,41.91,-83.4,66.87,6.29
440,Kapit,0,MY,1536898417,65,2.02,112.94,86.68,2.37
441,Boa Vista,20,BR,1536897600,83,2.82,-60.67,78.8,1.12
442,Hailar,56,CN,1536898418,69,49.2,119.7,64.18,10.31
443,Garowe,20,SO,1536898419,56,8.41,48.48,78.13,16.8
444,Ankpa,76,NG,1536898419,98,7.37,7.63,73.36,4.16
445,Cap Malheureux,75,MU,1536894000,68,-19.98,57.61,71.6,8.05
446,Bud,90,NO,1536897000,76,62.91,6.91,49.39,11.41
447,Oktyabrskiy,0,RU,1536895800,87,55.61,37.97,46.4,2.24
448,Ravar,0,IR,1536898420,37,31.27,56.81,58.87,2.37
449,San Rafael,0,AR,1536898333,86,-34.61,-68.33,50.86,6.51
450,Maceio,75,BR,1536897600,82,-9.67,-35.74,68.0,3.36
451,Novopavlovka,20,RU,1536898421,67,51.21,109.22,39.34,7.07
452,Togur,92,RU,1536898363,94,58.36,82.83,51.58,13.44
453,Nizhniy Kuranakh,92,RU,1536898422,100,58.84,125.49,42.22,3.38
454,Saint-Augustin,90,FR,1536897600,100,44.83,-0.61,59.0,2.24
455,Tuatapere,0,NZ,1536898422,77,-46.13,167.69,56.08,15.79
456,Lasa,20,CY,1536897600,65,34.92,32.53,73.0,8.05
457,Lagos,20,NG,1536894000,88,6.46,3.39,75.2,2.24
458,Warsaw,40,PL,1536897600,93,52.23,21.01,57.2,6.93
459,Pochinok,76,RU,1536898426,86,54.4,32.44,48.43,2.82
460,Bukama,20,CD,1536898427,93,-9.2,25.85,65.44,1.14
461,Pisco,90,PE,1536894000,87,-13.71,-76.2,60.8,11.41
462,Priekule,88,LV,1536897000,67,56.45,21.6,59.0,5.82
463,High Level,75,CA,1536897600,92,58.52,-117.13,28.4,2.37
464,San Policarpo,92,PH,1536898431,97,12.18,125.51,80.56,26.08
465,Bartlett,1,US,1536897180,84,41.89,-98.55,73.85,5.82
466,Khatima,80,IN,1536898431,100,28.92,79.97,75.43,4.38
467,Esil,8,KZ,1536898431,42,51.96,66.41,57.43,19.48
468,Gorontalo,12,ID,1536898432,52,0.54,123.06,85.51,7.29
469,Soyo,92,AO,1536898432,91,-6.13,12.37,71.29,3.6
470,Kungurtug,0,RU,1536898432,46,50.6,97.53,34.84,2.82
471,Westport,92,IE,1536898433,100,53.8,-9.52,52.75,15.46
472,Araguaina,12,BR,1536898436,78,-7.19,-48.21,74.62,4.27
473,Rabak,12,SD,1536898436,86,13.18,32.74,74.8,2.93
474,Suntar,0,RU,1536898436,58,62.16,117.65,46.63,3.71
475,Cuamba,0,MZ,1536898437,83,-14.8,36.54,59.59,2.59
476,Peyima,92,SL,1536898437,99,8.69,-11.04,67.33,4.94
477,Zhanakorgan,0,KZ,1536898437,35,43.91,67.25,56.98,11.43
478,Pa Sang,75,TH,1536897600,70,18.53,98.94,88.95,3.27
479,Lokoja,20,NG,1536898438,98,7.8,6.74,70.12,2.82
480,Bowen,0,AU,1536894000,39,-20.01,148.25,78.8,14.99
481,Woodward,1,US,1536897300,69,36.43,-99.39,73.4,14.99
482,Vila Franca do Campo,20,PT,1536895800,77,37.72,-25.43,69.8,5.82
483,Hellevoetsluis,0,NL,1536897300,100,51.83,4.14,50.9,4.7
484,Debre Tabor,8,ET,1536898439,91,11.86,38.01,52.48,3.6
485,Obigarm,92,TJ,1536898439,98,38.72,69.71,33.58,1.25
486,Mundra,88,IN,1536898440,92,22.84,69.73,78.67,14.0
487,Iquitos,75,PE,1536894000,83,-3.75,-73.25,78.8,3.36
488,Chokurdakh,88,RU,1536898441,96,70.62,147.9,39.43,14.0
489,Tautira,75,PF,1536895800,69,-17.73,-149.15,80.6,8.05
490,Lagoa,0,PT,1536895800,94,37.14,-8.45,68.0,2.24
491,Dongsheng,20,CN,1536898442,74,29.72,112.52,85.42,6.62
492,Yazd,0,IR,1536894000,28,31.89,54.36,73.4,4.7
493,Siva,20,GR,1536897000,88,35.21,25.04,66.2,6.93
494,Half Moon Bay,90,US,1536897180,87,37.46,-122.43,61.77,8.05
495,Quatre Cocos,75,MU,1536894000,68,-20.21,57.76,71.6,8.05
496,Mae Hong Son,75,MM,1536897600,78,19.3,97.96,80.6,4.7
497,Marsa Matruh,0,EG,1536894000,78,31.35,27.25,71.6,4.7
498,Russell,0,AR,1536897600,76,-33.01,-68.8,51.8,2.24
